City,Lat,Lng,Max Temp,Humidity,Cloudiness,Wind Speed,Country,Date
Petropavlovsk-Kamchatskiy,53.0452,158.6483,6.8,66,30,6.71,RU,1610232878
Butaritari,3.0707,172.7902,81.63,81,50,20.27,KI,1610232878
Pouembout,-21.1333,164.9,85.78,70,100,2.37,NC,1610232879
Port Alfred,-33.5906,26.891,70.0,89,14,7.0,ZA,1610232880
Alyangula,-13.8483,136.4192,84.2,89,88,2.3,AU,1610232880
Hue,16.4667,107.6,57.2,100,90,8.05,VN,1610232880
Torbay,47.6666,-52.7314,34.0,80,40,18.41,CA,1610232881
Pemangkat,1.1667,108.9667,77.04,90,100,7.09,ID,1610232881
Ushuaia,-54.8,-68.3,53.6,54,75,6.91,AR,1610232657
Mataura,-46.1927,168.8643,61.63,55,88,7.34,NZ,1610232874
Kiryat Gat,31.61,34.7642,59.0,67,0,4.61,IL,1610232883
Durazno,-33.4131,-56.5006,79.99,31,98,6.06,UY,1610232884
Punta Arenas,-53.15,-70.9167,50.0,76,75,11.5,CL,1610232878
Bereket,39.2446,55.5154,35.6,74,63,4.07,TM,1610232885
Dikson,73.5069,80.5464,-5.75,87,100,10.09,RU,1610232886
Muravlenko,63.7898,74.523,-14.08,90,95,6.4,RU,1610232886
Geraldton,-28.7667,114.6,73.4,83,75,13.8,AU,1610232709
Hobart,-42.8794,147.3294,71.01,59,20,5.75,AU,1610232647
Atuona,-9.8,-139.0333,77.92,78,97,17.63,PF,1610232887
Lagoa,39.05,-27.9833,56.68,60,94,7.7,PT,1610232888
Kruisfontein,-34.0033,24.7314,69.01,82,40,4.0,ZA,1610232889
Vila Velha,-20.3297,-40.2925,79.0,83,40,13.8,BR,1610232889
Pirovskoye,57.6267,92.2658,0.72,92,100,10.13,RU,1610232890
Hirara,24.8,125.2833,55.4,58,75,9.22,JP,1610232890
Hermanus,-34.4187,19.2345,64.99,92,79,12.12,ZA,1610232891
Melito di Porto Salvo,37.9222,15.7714,60.8,88,75,5.75,IT,1610232891
Porbandar,21.6422,69.6093,65.21,65,1,12.12,IN,1610232891
Cape Town,-33.9258,18.4232,68.0,77,75,5.75,ZA,1610232892
Cherskiy,68.75,161.3,-30.17,84,65,2.66,RU,1610232893
Port Blair,11.6667,92.75,79.56,81,16,11.07,IN,1610232894
Hilo,19.7297,-155.09,80.6,61,75,6.91,US,1610232895
Fortuna,40.5982,-124.1573,61.0,58,1,3.06,US,1610232895
Puerto Cabezas,14.0351,-83.3888,82.4,83,40,6.91,NI,1610232895
Tasiilaq,65.6145,-37.6368,17.6,49,54,6.91,GL,1610232896
Yumen,40.2833,97.2,9.41,90,8,27.07,CN,1610232893
Yellowknife,62.456,-114.3525,12.2,92,20,5.75,CA,1610232897
Port Elizabeth,-33.918,25.5701,69.8,88,0,18.41,ZA,1610232897
Busselton,-33.65,115.3333,68.0,81,97,1.99,AU,1610232696
Grenfell,-33.9,148.1667,78.01,44,0,3.0,AU,1610232898
Ponta do Sol,32.6667,-17.1,53.01,72,44,4.0,PT,1610232898
Chui,-33.6971,-53.4616,67.24,68,98,10.4,UY,1610232899
Várzea da Palma,-17.5981,-44.7308,74.46,87,100,2.35,BR,1610232899
Kapaa,22.0752,-159.319,77.0,69,75,6.91,US,1610232847
Vaini,-21.2,-175.2,82.4,89,75,8.05,TO,1610232900
Saint Paul Harbor,57.79,-152.4072,35.6,87,90,26.46,US,1610232901
Bandarbeyla,9.4942,50.8122,72.46,73,25,22.01,SO,1610232901
Qaanaaq,77.484,-69.3632,-1.57,77,0,4.59,GL,1610232902
Benguela,-12.5763,13.4055,73.4,75,70,3.76,AO,1610232668
Kushmurun,52.4503,64.6311,10.76,95,100,13.29,KZ,1610232903
Ilulissat,69.2167,-51.1,21.2,45,75,16.11,GL,1610232903
Los Llanos de Aridane,28.6585,-17.9182,60.8,59,20,14.97,ES,1610232904
Rikitea,-23.1203,-134.9692,78.58,75,100,13.11,PF,1610232891
Berlevåg,70.8578,29.0864,16.36,93,28,16.42,NO,1610232905
Ketchikan,55.3422,-131.6461,39.2,87,90,16.11,US,1610232744
Srednekolymsk,67.45,153.6833,-28.84,84,83,4.79,RU,1610232902
Rantepao,-2.9701,119.8978,69.42,87,76,1.68,ID,1610232906
Paso de Carrasco,-34.8603,-56.0522,71.6,73,0,10.36,UY,1610232906
Mar del Plata,-38.0023,-57.5575,69.8,73,0,18.41,AR,1610232901
Richards Bay,-28.783,32.0377,72.54,79,1,10.58,ZA,1610232907
Khani,41.9563,42.9566,37.4,65,0,6.91,GE,1610232908
Swan River,52.1058,-101.2676,21.2,79,0,14.97,CA,1610232908
Caravelas,-17.7125,-39.2481,78.12,83,3,9.37,BR,1610232909
Māndal,25.45,74.5667,58.89,79,0,5.93,IN,1610232909
Paso de los Toros,-32.8167,-56.5167,83.25,29,100,5.7,UY,1610232910
Sambava,-14.2667,50.1667,75.94,84,2,5.82,MG,1610232910
Codrington,-38.2667,141.9667,70.23,57,3,7.36,AU,1610232911
Barrow,71.2906,-156.7887,6.8,78,90,6.91,US,1610232911
Ponta Delgada,37.7333,-25.6667,53.6,58,40,5.75,PT,1610232912
Maba,24.6841,113.5984,41.13,53,95,3.13,CN,1610232912
Margate,51.3813,1.3862,36.0,87,5,1.99,GB,1610232913
Vaijāpur,19.9167,74.7333,71.28,73,38,7.4,IN,1610232913
Tunceli,39.1083,39.5471,26.6,100,90,3.71,TR,1610232914
Katsuura,35.1333,140.3,33.8,60,20,5.75,JP,1610232914
Kavieng,-2.5744,150.7967,84.2,73,100,10.67,PG,1610232915
De Aar,-30.6497,24.0123,74.48,48,50,11.54,ZA,1610232916
Manaure,11.7751,-72.4445,81.93,68,76,15.14,CO,1610232917
Gallup,35.5281,-108.7426,28.4,80,90,5.75,US,1610232917
Bluff,-46.6,168.3333,56.17,80,100,20.04,NZ,1610232918
Sobolevo,54.4299,31.8996,14.77,97,99,6.17,RU,1610232918
Malé,4.1748,73.5089,80.6,83,75,3.44,MV,1610232919
Thompson,55.7435,-97.8558,6.8,92,20,3.44,CA,1610232919
Baykit,61.67,96.37,-9.06,86,100,1.9,RU,1610232919
Maragogi,-9.0122,-35.2225,78.51,76,84,11.86,BR,1610232920
Hyderabad,17.3753,78.4744,69.01,100,87,3.44,IN,1610232803
Madimba,-10.4,40.3333,75.2,83,75,13.8,TZ,1610232921
Hvide Sande,56.0045,8.1294,34.0,83,99,16.67,DK,1610232922
Namatanai,-3.6667,152.4333,84.42,69,88,6.15,PG,1610232922
Kulhudhuffushi,6.6221,73.07,81.99,74,78,9.44,MV,1610232923
Ancud,-41.8697,-73.8203,57.99,82,90,18.41,CL,1610232923
Berea,41.3662,-81.8543,30.99,72,62,6.17,US,1610232785
Clyde River,70.4692,-68.5914,3.2,78,90,12.66,CA,1610232924
Mossamedes,-15.1961,12.1522,70.75,75,72,8.12,AO,1610232925
North Charleston,32.8886,-80.0075,48.99,61,75,10.36,US,1610232791
Norman Wells,65.282,-126.8329,5.0,85,20,6.91,CA,1610232926
Albany,42.6001,-73.9662,28.99,56,100,8.12,US,1610232926
Lorengau,-2.0226,147.2712,84.04,61,100,2.98,PG,1610232927
Kismayo,-0.3582,42.5454,76.89,79,0,19.28,SO,1610232927
East London,-33.0153,27.9116,74.68,77,31,18.7,ZA,1610232928
Pitimbu,-7.4706,-34.8086,80.6,74,0,9.22,BR,1610232928
Itapirapuã,-15.8233,-50.6133,78.3,73,56,3.98,BR,1610232929
Ust'-Koksa,50.2696,85.6108,-2.18,79,80,2.08,RU,1610232929
Visnes,59.3556,5.2242,37.4,87,75,10.36,NO,1610232930
Nanortalik,60.1432,-45.2371,29.61,91,100,7.65,GL,1610232930
Faanui,-16.4833,-151.75,81.37,71,31,11.61,PF,1610232901
Sept-Îles,50.2001,-66.3821,28.4,50,21,10.36,CA,1610232932
Severo-Kuril'sk,50.6789,156.125,21.15,88,92,10.96,RU,1610232932
Luena,-11.7833,19.9167,61.23,95,100,4.7,AO,1610232933
Yangi Marg`ilon,40.4272,71.7189,19.4,79,0,4.61,UZ,1610232933
Mamakan,57.8161,114.0028,-9.24,85,100,1.52,RU,1610232934
Río Cuarto,-33.1307,-64.3499,80.6,50,0,16.11,AR,1610232934
Valdivia,-39.8142,-73.2459,60.8,67,20,16.11,CL,1610232692
Ca Mau,9.1769,105.15,71.28,87,65,5.5,VN,1610232935
Lugovoy,42.9472,72.7644,17.78,76,0,6.02,KZ,1610232935
Camaçari,-12.6975,-38.3242,82.4,78,20,13.8,BR,1610232783
Batemans Bay,-35.7167,150.1833,75.99,77,8,1.01,AU,1610232936
Samarai,-10.6167,150.6667,85.1,74,100,10.58,PG,1610232937
Carlsbad,33.1581,-117.3506,70.0,67,1,5.75,US,1610232937
Hong Kong,22.2855,114.1577,53.01,39,93,1.01,HK,1610232782
Longyearbyen,78.2186,15.6401,30.2,69,20,18.41,SJ,1610232900
Varberg,57.1056,12.2508,34.0,93,64,11.99,SE,1610232938
Paita,-5.0892,-81.1144,78.8,73,0,9.22,PE,1610232939
Roald,62.5833,6.1333,32.0,86,75,20.71,NO,1610232940
Hithadhoo,-0.6,73.0833,80.73,75,100,10.65,MV,1610232941
Matara,5.9485,80.5353,73.33,90,100,4.97,LK,1610232941
Westport,41.1415,-73.3579,35.01,47,90,8.05,US,1610232837
Chokurdakh,70.6333,147.9167,-29.02,86,100,2.06,RU,1610232942
Kuytun,54.3419,101.5036,-3.86,89,100,3.89,RU,1610232942
Kurush,41.2841,47.8345,26.6,93,0,6.35,RU,1610232943
Sitka,57.0531,-135.33,44.6,57,90,26.46,US,1610232943
Misratah,32.3754,15.0925,71.76,34,0,17.92,LY,1610232944
Padang,-0.9492,100.3543,75.2,88,40,4.61,ID,1610232944
Aojiang,22.9421,116.0359,48.99,30,97,1.99,CN,1610232944
Constitución,-35.3333,-72.4167,58.19,70,49,13.98,CL,1610232656
Upernavik,72.7868,-56.1549,10.44,81,30,10.47,GL,1610232945
Mindelo,16.8901,-24.9804,71.6,56,20,24.16,CV,1610232946
Lékoni,-1.5843,14.2591,74.59,73,0,5.99,GA,1610232946
Pisco,-13.7,-76.2167,75.2,73,0,25.32,PE,1610232947
Vao,-22.6667,167.4833,78.62,88,100,13.29,NC,1610232947
Port-Gentil,-0.7193,8.7815,80.6,89,40,8.05,GA,1610232948
Kovdor,67.5662,30.4758,-4.67,91,45,3.33,RU,1610232948
Philadelphia,39.9523,-75.1638,42.8,31,75,12.66,US,1610232832
Kahului,20.8947,-156.47,80.6,65,40,12.66,US,1610232787
Ugoofaaru,5.6667,73.0,82.02,70,90,6.49,MV,1610232949
Souillac,-20.5167,57.5167,78.8,89,40,4.61,MU,1610232950
Kungurtug,50.5994,97.5228,-19.84,80,43,0.72,RU,1610232950
Palana,59.1167,159.9667,9.39,91,100,13.0,RU,1610232951
Tonj,7.2737,28.6822,73.76,30,30,4.81,SS,1610232951
Shingū,33.7333,135.9833,35.6,55,40,19.57,JP,1610232952
Castro,-24.7911,-50.0119,66.85,96,99,7.54,BR,1610232674
Jamestown,42.097,-79.2353,30.2,59,1,9.22,US,1610232776
Wilmington,34.2257,-77.9447,48.2,46,1,9.22,US,1610232933
Champerico,14.3,-91.9167,86.0,62,75,11.5,GT,1610232954
Bosobolo,4.1833,19.9,75.6,44,23,2.53,CD,1610232954
Arraial do Cabo,-22.9661,-42.0278,77.09,92,9,10.71,BR,1610232888
Bethel,41.3712,-73.414,32.0,37,90,12.66,US,1610232953
Grand Gaube,-20.0064,57.6608,77.0,86,1,1.99,MU,1610232956
Saskylakh,71.9167,114.0833,-25.87,85,100,8.79,RU,1610232956
Kaeo,-35.1,173.7833,75.99,68,82,1.01,NZ,1610232956
Saint-Philippe,-21.3585,55.7679,73.4,78,0,4.61,RE,1610232957
Iqaluit,63.7506,-68.5145,10.4,85,90,5.75,CA,1610232957
Takoradze,4.8845,-1.7554,79.11,87,65,9.26,GH,1610232958
Kangaatsiaq,68.3065,-53.4641,15.69,88,100,10.94,GL,1610232958
Rājgīr,25.0333,85.4167,60.8,82,40,6.11,IN,1610232959
Río Gallegos,-51.6226,-69.2181,59.0,58,40,16.11,AR,1610232959
Poronaysk,49.2167,143.1167,-8.77,85,100,6.85,RU,1610232960
Ayan,56.45,138.1667,-8.45,77,100,6.49,RU,1610232960
Awjilah,29.1081,21.2869,64.47,37,0,7.58,LY,1610232960
Acarí,-15.4311,-74.6158,74.26,65,46,7.7,PE,1610232961
New Norfolk,-42.7826,147.0587,71.01,39,12,1.01,AU,1610232961
Arman',59.7,150.1667,-0.26,91,100,9.62,RU,1610232962
Esperance,-33.8667,121.9,77.0,38,100,18.41,AU,1610232962
Mazagão,-0.115,-51.2894,82.4,83,40,6.91,BR,1610232963
Hasaki,35.7333,140.8333,23.0,79,20,4.61,JP,1610232963
Udaipura,23.0833,78.5,66.42,71,76,4.88,IN,1610232963
Lavrentiya,65.5833,-171.0,-12.62,85,0,4.43,RU,1610232964
West Bay,19.3667,-81.4167,77.0,73,75,12.66,KY,1610232964
Itarema,-2.9248,-39.9167,79.75,78,57,13.85,BR,1610232965
Marawi,7.9986,124.2928,75.0,91,67,5.99,PH,1610232965
Puerto Ayora,-0.7393,-90.3518,80.6,69,0,215.19,EC,1610232952
The Valley,18.217,-63.0578,79.0,73,20,11.5,AI,1610232966
Vikulovo,56.8167,70.6107,3.74,94,100,3.94,RU,1610232967
Lebu,-37.6167,-73.65,59.18,71,0,7.05,CL,1610232967
Lerwick,60.1545,-1.1494,37.4,75,40,21.85,GB,1610232967
Kidal,18.4411,1.4078,76.93,17,0,9.57,ML,1610232968
Kavaratti,10.5669,72.642,82.33,75,100,8.63,IN,1610232968
Guerrero Negro,27.9769,-114.0611,65.77,58,0,17.87,MX,1610232969
Bambous Virieux,-20.3428,57.7575,78.8,89,40,4.61,MU,1610232969
Ribeira Grande,38.5167,-28.7,58.41,66,73,14.0,PT,1610232970
Egvekinot,66.3167,-179.1667,-20.61,85,46,9.33,RU,1610232970
Cooma,-36.2333,149.1333,68.0,60,17,5.75,AU,1610232970
Tuatapere,-46.1333,167.6833,58.57,72,97,5.82,NZ,1610232867
Klaksvík,62.2266,-6.589,33.8,60,40,17.27,FO,1610232971
Selishche,56.8879,33.2691,6.76,95,97,4.05,RU,1610232972
Assiut,27.181,31.1837,55.4,71,0,10.36,EG,1610232972
Marzuq,14.4,46.4667,52.3,44,0,3.6,YE,1610232972
Yerofey Pavlovich,53.9667,121.9667,-9.72,88,100,2.46,RU,1610232973
Tiznit Province,29.5833,-9.5,47.64,80,52,11.45,MA,1610232973
Balkhash,46.844,74.9804,-4.23,92,73,9.95,KZ,1610232974
Asău,46.4333,26.4,30.2,100,100,1.14,RO,1610232975
Warrnambool,-38.3833,142.4833,69.01,68,1,5.01,AU,1610232975
Saint-Augustin,51.226,-58.6502,29.46,96,100,13.47,CA,1610232975
Heihe,50.2441,127.4902,-7.6,71,0,4.47,CN,1610232976
Bengkulu,-3.8004,102.2655,75.42,84,100,4.59,ID,1610232977
Hukuntsi,-24.0,21.75,72.93,73,98,9.22,BW,1610232977
Jalu,29.0331,21.5482,64.04,38,0,7.29,LY,1610232977
George Town,5.4112,100.3354,78.8,78,20,4.61,MY,1610232978
Shiyan,32.6475,110.7781,31.86,70,100,2.35,CN,1610232978
Mamou,10.5,-12.0,73.27,49,82,3.65,GN,1610232979
Saldanha,-33.0117,17.9442,66.2,77,0,3.44,ZA,1610232979
Portsmouth,50.799,-1.0913,33.01,100,0,4.38,GB,1610232954
Mahébourg,-20.4081,57.7,78.8,89,40,4.61,MU,1610232980
Provideniya,64.3833,-173.3,-7.31,82,1,7.02,RU,1610232981
Tiksi,71.6872,128.8694,-19.34,88,100,6.73,RU,1610232982
Korla,41.7597,86.1469,11.21,89,0,0.85,CN,1610232982
Gonbad-e Kāvūs,37.25,55.1672,46.26,48,0,6.26,IR,1610232983
Half Moon Bay,37.4636,-122.4286,62.01,76,1,13.8,US,1610232983
Kinablangan,7.6947,126.5503,79.81,75,89,3.69,PH,1610232984
Sandy Bay,-42.913,147.3532,71.01,59,20,5.75,AU,1610232984
Hofn,64.2539,-15.2082,21.81,82,0,11.95,IS,1610232985
Salym,60.0625,71.4789,-17.99,88,91,4.61,RU,1610232985
Banda Aceh,5.5577,95.3222,77.76,77,98,2.48,ID,1610232986
Barra do Garças,-15.89,-52.2567,79.57,68,66,3.71,BR,1610232986
Oriximiná,-1.7656,-55.8661,78.06,83,93,2.8,BR,1610232987
Emmen,52.7792,6.9069,35.6,93,97,2.3,NL,1610232792
Vytegra,61.0064,36.4481,-8.5,91,63,4.45,RU,1610232988
Nyköping,58.753,17.0079,30.2,100,75,6.91,SE,1610232988
Toppenish,46.3774,-120.3087,37.99,97,99,0.47,US,1610232989
Kapit,2.0167,112.9333,74.07,95,74,1.03,MY,1610232989
Sangar,63.9242,127.4739,-39.26,81,99,2.71,RU,1610232990
Kūhdasht,33.535,47.6061,36.54,65,0,1.86,IR,1610232991
Quatre Cocos,-20.2078,57.7625,78.8,89,40,4.61,MU,1610232991
Rongcheng,30.634,117.8517,29.28,77,10,1.05,CN,1610232991
Labuhan,-6.8844,112.2051,77.0,87,100,7.25,ID,1610232992
Guiyang,26.5833,106.7167,28.4,69,90,4.47,CN,1610232992
Felipe Carrillo Puerto,19.5833,-88.05,70.61,68,19,3.98,MX,1610232993
Rørvik,64.8621,11.2373,27.93,95,100,27.22,NO,1610232993
Altay,47.8667,88.1167,-6.25,70,3,2.68,CN,1610232994
Salé,34.0389,-6.8166,48.2,93,75,9.22,MA,1610232994
Windsor,42.3001,-83.0165,41.0,60,75,3.44,CA,1610232876
Cayenne,4.9333,-52.3333,78.8,94,75,3.44,GF,1610232995
Coahuayana Viejo,18.7333,-103.6833,77.0,61,75,11.5,MX,1610232996
Prainha,-1.8,-53.48,77.74,82,95,2.91,BR,1610232997
Dunedin,-45.8742,170.5036,62.71,55,39,5.61,NZ,1610232997
Gboko,7.3179,8.9951,81.25,17,33,5.5,NG,1610232998
Rayong,12.8333,101.4333,71.01,71,89,7.09,TH,1610232998
Brae,60.3964,-1.353,37.4,75,40,21.85,GB,1610232999
Mineiros,-17.5694,-52.5511,74.57,77,99,2.44,BR,1610232743
Batagay,67.6333,134.6333,-20.2,87,99,1.45,RU,1610233000
Te Anau,-45.4167,167.7167,53.96,83,100,6.4,NZ,1610233000
Mayo,38.8876,-76.5119,42.01,48,1,10.36,US,1610232717
Tilichiki,60.4667,166.1,-15.57,86,27,11.81,RU,1610233001
Henties Bay,-22.116,14.2845,68.0,83,88,4.59,NA,1610233002
Kholm,59.2667,32.85,1.58,93,41,4.16,RU,1610233002
Itaobim,-16.5667,-41.8333,75.58,81,76,2.82,BR,1610233003
Gweta,-20.1833,25.2333,77.43,63,94,5.14,BW,1610233003
Avarua,-21.2078,-159.775,84.2,65,75,5.75,CK,1610233004
Lázaro Cárdenas,17.9583,-102.2,79.84,67,1,8.63,MX,1610232939
Narsaq,60.9167,-46.05,42.8,39,75,24.16,GL,1610233004
Palmares do Sul,-30.2578,-50.5097,77.09,77,7,14.2,BR,1610233005
Laguna,38.421,-121.4238,57.0,50,1,6.91,US,1610232848
Kutum,14.2,24.6667,56.95,34,0,9.95,SD,1610233006
Águas Vermelhas,-15.7472,-41.46,69.17,92,78,3.15,BR,1610233007
Lüderitz,-26.6481,15.1594,70.41,52,8,24.54,NA,1610233007
Innisfail,-17.5333,146.0333,81.68,81,85,5.06,AU,1610233007
Harper,4.375,-7.7169,78.44,87,12,7.47,LR,1610232908
Burnie,-41.0667,145.9167,71.01,57,89,1.99,AU,1610233008
Sechura,-5.5569,-80.8222,76.48,62,9,19.42,PE,1610233009
Varzelândia,-15.7014,-44.0275,73.15,78,93,4.68,BR,1610233010
Cascais,38.6979,-9.4215,44.01,56,0,5.75,PT,1610233010
Laas,46.6166,10.7002,21.0,67,0,6.91,IT,1610233011
Acapulco de Juárez,16.8634,-99.8901,84.2,70,40,6.91,MX,1610233011
Balabac,7.9868,117.0645,81.79,79,74,22.88,PH,1610233012
Cabo San Lucas,22.8909,-109.9124,75.99,49,1,11.5,MX,1610232747
Guilin,25.2819,110.2864,41.0,42,90,2.24,CN,1610233013
Aquiraz,-3.9014,-38.3911,80.6,78,0,8.05,BR,1610233013
Ballina,-28.8667,153.5667,77.0,68,90,6.91,AU,1610233014
Trairi,-3.2778,-39.2689,79.65,77,10,9.8,BR,1610233014
Kudahuvadhoo,2.6708,72.8944,81.25,73,100,8.77,MV,1610233015
Brookhaven,31.5791,-90.4407,44.01,61,0,5.01,US,1610233015
Vardø,70.3705,31.1107,20.93,94,100,15.61,NO,1610233016
Lompoc,34.6391,-120.4579,69.8,26,1,12.66,US,1610233016
San Quintín,30.4833,-115.95,63.7,59,0,10.54,MX,1610232798
Nikolskoye,59.7035,30.7861,8.01,78,0,4.47,RU,1610233017
Matthews,35.1168,-80.7237,44.01,65,0,3.31,US,1610232983
Airai,-8.9266,125.4092,66.02,100,100,1.19,TL,1610232903
Marsaxlokk,35.8419,14.5431,69.01,73,0,12.66,MT,1610233018
Myitkyina,25.3833,97.4,58.46,71,16,2.33,MM,1610233019
Dubuque,42.4833,-90.8668,26.6,80,90,6.91,US,1610232992
Zhigansk,66.7697,123.3711,-27.02,85,100,6.82,RU,1610233019
Bredasdorp,-34.5322,20.0403,64.4,88,47,5.75,ZA,1610233020
Mersing,2.4312,103.8405,75.2,94,100,14.97,MY,1610232861
Tampakan,6.4442,124.9264,76.96,81,27,0.22,PH,1610233021
Saint-Joseph,-21.3667,55.6167,73.4,78,0,4.61,RE,1610233021
Pacific Grove,36.6177,-121.9166,62.01,47,1,5.75,US,1610233022
Hudiksvall,61.729,17.1036,23.45,97,59,9.26,SE,1610233022
Odesskoye,54.2111,72.9651,14.07,96,100,16.49,RU,1610233023
Pathein,16.7833,94.7333,72.12,83,0,3.65,MM,1610233024
San Juan,-31.5375,-68.5364,88.39,26,0,8.08,AR,1610232728
Panabá,21.2833,-88.2667,66.99,78,100,5.97,MX,1610233024
Blairmore,49.6,-114.4353,33.8,69,58,13.8,CA,1610233025
Bayan,46.0833,127.4,-20.92,87,7,4.23,CN,1610233025
Zaranj,30.9667,61.8833,31.96,66,0,2.62,AF,1610233026
Kieta,-6.2167,155.6333,86.18,61,49,0.83,PG,1610233026
Lensk,60.7253,114.9278,-9.27,87,100,7.76,RU,1610232963
Una,20.8167,71.0333,71.19,54,0,15.46,IN,1610233027
Susanville,40.4163,-120.653,39.99,56,1,3.44,US,1610233028
Khandyga,62.6667,135.6,-32.57,84,100,1.03,RU,1610233028
Quelimane,-17.8786,36.8883,77.18,91,100,0.49,MZ,1610233028
Vanavara,60.34,102.2797,-8.57,90,100,6.13,RU,1610233029
Flin Flon,54.7682,-101.865,14.0,85,1,6.91,CA,1610233029
Ambon City,-3.6954,128.1814,78.8,94,40,9.22,ID,1610233023
Hualmay,-11.0964,-77.6139,72.72,76,53,11.32,PE,1610233030
Nanning,22.8167,108.3167,44.6,49,90,8.95,CN,1610232899
Biak,-0.9131,122.8766,78.57,79,56,2.53,ID,1610233031
Sawākin,19.1059,37.3321,75.58,75,0,9.84,SD,1610233032
Carnarvon,-24.8667,113.6333,80.6,78,68,14.97,AU,1610232993
Beringovskiy,63.05,179.3167,-14.62,88,100,11.61,RU,1610233033
San Anselmo,37.9747,-122.5616,62.6,48,1,8.05,US,1610232986
Mozarlândia,-14.7447,-50.5706,81.39,66,87,3.51,BR,1610233031
Nemuro,43.3236,145.575,17.71,88,0,10.8,JP,1610233018
Safi,32.2994,-9.2372,55.74,67,58,19.37,MA,1610233034
Vanimo,-2.6741,141.3028,81.21,83,100,2.01,PG,1610233035
Qaqortoq,60.7167,-46.0333,42.8,39,75,24.16,GL,1610233036
Katherine,-14.4667,132.2667,82.4,74,58,5.75,AU,1610233036
North Bend,43.4065,-124.2243,55.4,62,1,6.91,US,1610233037
Talcahuano,-36.7167,-73.1167,66.2,52,0,12.66,CL,1610233037
Bariloche,-41.1456,-71.3082,53.6,58,75,28.77,AR,1610232767
Merke,42.8728,73.1786,23.7,65,0,6.76,KZ,1610232867
Yulara,-25.2406,130.9889,80.6,21,0,9.22,AU,1610233038
Tuktoyaktuk,69.4541,-133.0374,1.4,85,75,18.41,CA,1610232985
Pangai,-19.8,-174.35,80.26,82,29,14.61,TO,1610233039
Malinovoye Ozero,51.6753,79.7825,3.54,88,100,12.62,RU,1610233040
Olafsvik,64.8945,-23.7142,29.19,94,100,12.77,IS,1610233040
São Filipe,14.8961,-24.4956,72.28,74,10,17.16,CV,1610232880
Hamilton,39.1834,-84.5333,33.01,68,5,2.8,US,1610233019
Manokwari,-0.8667,134.0833,80.53,75,100,0.74,ID,1610233042
Cam Ranh,11.9214,109.1591,73.4,78,20,14.97,VN,1610233042
Severnyy,50.677,36.5532,32.0,86,75,13.42,RU,1610233043
Krasnosel'kup,65.7,82.4667,-11.94,90,93,7.09,RU,1610233044
Broome,42.2506,-75.833,28.99,69,1,11.5,US,1610233044
Kamaishi,39.2667,141.8833,23.0,93,75,6.91,JP,1610233045
Mandera,3.9366,41.867,78.22,30,5,9.89,KE,1610233045
Northam,51.0333,-4.2167,35.01,91,1,1.01,GB,1610233046
Bambanglipuro,-7.95,110.2833,77.2,87,93,2.91,ID,1610233046
San Patricio,28.017,-97.5169,55.4,71,90,11.5,US,1610233047
Vredefort,-27.0081,27.3646,74.08,49,85,6.02,ZA,1610233047
Nurota,40.5614,65.6886,19.4,73,0,11.5,UZ,1610233048
Chifeng,42.2683,118.9636,-3.42,82,9,9.98,CN,1610233048
Saint-François,46.4154,3.9054,30.99,74,20,6.91,FR,1610233049
Suntar,62.1444,117.6319,-31.94,83,82,4.25,RU,1610233049
Mitsamiouli,-11.3847,43.2844,81.73,80,8,14.81,KM,1610233050
Pierre,44.3683,-100.351,34.0,100,96,3.0,US,1610233050
Virovitica,45.8319,17.3839,30.99,95,100,3.98,HR,1610233051
Vadsø,70.0744,29.7487,5.0,92,90,12.66,NO,1610233051
Fairbanks,64.8378,-147.7164,12.2,79,90,5.75,US,1610232914
Alofi,-19.0595,-169.9187,86.0,62,48,14.97,NU,1610233052
Roebourne,-20.7833,117.1333,93.69,36,42,13.76,AU,1610233052
Kaitangata,-46.2817,169.8464,66.99,56,70,8.01,NZ,1610233010
Äänekoski,62.6946,25.818,8.6,92,90,2.3,FI,1610233053
Khatanga,71.9667,102.5,-31.14,85,75,3.04,RU,1610233054
Adrar,20.5022,-10.0711,62.46,43,0,11.56,MR,1610233054
Drezdenko,52.8383,15.8308,37.0,85,99,1.99,PL,1610233055
Yamada,39.4667,141.95,24.87,89,5,11.07,JP,1610233055
Fare,-16.7,-151.0167,80.98,73,36,12.21,PF,1610233056
Meulaboh,4.1363,96.1285,74.5,87,99,4.52,ID,1610233056
Vaitape,-16.5167,-151.75,81.41,71,33,11.52,PF,1610233057
Chipinge,-20.1883,32.6236,64.26,98,89,4.16,ZW,1610233057
Søgne,58.0833,7.8167,41.0,93,75,3.44,NO,1610233057
Danville,36.586,-79.395,44.6,39,1,9.22,US,1610233058
Dimona,31.0667,35.0333,55.67,52,3,5.66,IL,1610233058
Chaman,30.9236,66.4512,33.4,75,0,3.22,PK,1610233059
Kolokani,13.5728,-8.0339,77.2,16,0,4.81,ML,1610232864
Natal,-5.795,-35.2094,80.6,74,20,9.22,BR,1610232992
Nuevo Progreso,23.1667,-97.95,64.0,95,100,1.99,MX,1610233060
Aldan,58.6031,125.3894,-11.52,90,100,9.66,RU,1610233060
Verkhnyaya Syrovatka,50.829,34.9586,29.98,96,99,12.59,UA,1610233061
Talnakh,69.4865,88.3972,-25.26,82,4,1.79,RU,1610233009
Nantucket,41.2835,-70.0995,33.8,80,90,20.71,US,1610232867
Sørland,67.667,12.6934,36.23,81,100,22.15,NO,1610233063
Anadyr,64.75,177.4833,-29.0,68,20,8.95,RU,1610233063
Russell,32.3502,-85.1999,39.2,65,90,11.5,US,1610233064
Raudeberg,61.9875,5.1352,33.01,89,100,23.04,NO,1610233064
Krasnogvardeyskiy,57.3793,62.3195,-6.59,91,91,6.02,RU,1610233065
Wanning,18.8003,110.3967,57.78,80,95,12.08,CN,1610233065
Zavyalovo,54.5053,82.4484,6.8,61,0,11.18,RU,1610233066
Malvern,34.3623,-92.813,44.6,45,1,3.44,US,1610233067
Mount Gambier,-37.8333,140.7667,66.2,72,12,5.75,AU,1610233017
Kirakira,-10.4544,161.9205,84.51,72,98,5.64,SB,1610233068
Taganak,6.0833,118.3,75.2,100,40,4.61,PH,1610233068
College,64.8569,-147.8028,12.2,79,90,5.75,US,1610233069
Mbala,-8.8402,31.3659,59.27,94,99,3.53,ZM,1610233069
Isangel,-19.55,169.2667,86.0,79,75,3.44,VU,1610233012
Beni Mazar,28.4962,30.8029,57.4,55,0,9.86,EG,1610233070
Cañon City,38.441,-105.2424,30.2,93,90,5.28,US,1610233071
Meylan,45.2199,5.7901,32.0,85,86,1.99,FR,1610233071
Belyy Yar,53.6039,91.3903,12.2,52,0,11.18,RU,1610233072
São João da Barra,-21.6403,-41.0511,77.43,89,38,12.93,BR,1610233072
Bambuí,-20.0064,-45.9769,74.25,87,83,5.57,BR,1610233073
Pevek,69.7008,170.3133,-23.49,88,47,2.93,RU,1610232904
Lata,40.1629,-8.3327,43.0,68,94,5.01,PT,1610233073
Sistranda,63.7256,8.834,35.6,80,40,17.27,NO,1610233074
Liverpool,53.4106,-2.9779,36.0,86,0,6.91,GB,1610232962
Kangayam,11.0,77.5667,71.46,93,99,4.94,IN,1610233075
Ilo,-17.6394,-71.3375,70.43,77,51,5.91,PE,1610233075
Atambua,-9.1061,124.8925,76.6,87,100,1.34,ID,1610233076
Leningradskiy,69.3833,178.4167,-21.32,85,48,5.01,RU,1610232983
Viedma,-40.8135,-62.9967,87.01,15,0,10.0,AR,1610233076
Conceição do Araguaia,-8.2578,-49.2647,78.91,77,100,3.96,BR,1610233077
Beihai,21.4833,109.1,48.36,51,100,11.68,CN,1610233077
Mastung,29.7994,66.845,30.99,78,0,1.88,PK,1610233078
Kirando,-7.4167,30.6,70.23,82,97,4.43,TZ,1610233078
Artyom,40.4723,50.333,51.8,46,0,20.71,AZ,1610233079
Haines Junction,60.7522,-137.5108,21.2,86,100,1.99,CA,1610233069
Maracaibo,10.6317,-71.6406,80.85,72,98,6.58,VE,1610233080
Sorong,-0.8833,131.25,81.27,79,91,5.17,ID,1610233081
Abéché,13.8292,20.8324,70.9,22,0,14.76,TD,1610233028
Bahir Dar,11.5936,37.3908,58.93,62,15,3.62,ET,1610233082
Bathsheba,13.2167,-59.5167,78.8,78,40,17.27,BB,1610233032
Aragarças,-15.8975,-52.2508,76.35,79,59,1.34,BR,1610233083
Otane,-39.8833,176.6333,73.99,67,99,8.01,NZ,1610233084
Lakatoro,-16.0999,167.4164,85.91,67,94,2.46,VU,1610233084
State College,40.7934,-77.86,34.0,65,3,3.0,US,1610233085
Tambun,-6.2641,107.0712,78.01,88,40,5.75,ID,1610233085
Shubarkuduk,49.1447,56.4872,22.91,93,99,11.92,KZ,1610233086
Laureles,26.1092,-97.4941,63.0,80,100,5.01,US,1610233086
Taoudenni,22.6783,-3.9836,71.17,40,71,13.47,ML,1610233087
Itoman,26.1247,127.6694,55.4,67,75,21.85,JP,1610233087
Plouzané,48.3833,-4.6167,35.6,75,0,11.5,FR,1610233007
Carballo,43.213,-8.691,42.8,87,40,10.36,ES,1610233036
Kenai,60.5544,-151.2583,30.99,86,90,19.57,US,1610233088
Nioro,13.35,-15.75,77.2,32,0,11.95,GM,1610233089
Baharly,38.4362,57.4316,38.95,62,0,3.58,TM,1610233089
Walvis Bay,-22.9575,14.5053,68.0,77,100,9.22,NA,1610233090
Eirunepé,-6.6603,-69.8736,78.64,83,95,2.13,BR,1610233091
Arrondissement de Lannion,48.75,-3.4167,37.4,70,0,6.91,FR,1610233091
Sisimiut,66.9395,-53.6735,21.31,88,100,9.37,GL,1610233091
Hammerfest,70.6634,23.6821,21.2,63,19,19.57,NO,1610233092
Mānsa,29.9833,75.3833,49.3,53,0,5.73,IN,1610233092
Nome,64.5011,-165.4064,-5.8,71,1,14.97,US,1610233093
San Pedro de Ycuamandiyú,-24.0917,-57.0764,74.97,96,88,4.23,PY,1610233093
Izumo,35.3667,132.7667,30.2,93,75,12.66,JP,1610233094
Marrakesh,31.6315,-8.0083,46.4,87,75,11.5,MA,1610233094
Kolomak,49.8399,35.3044,29.46,95,80,11.1,UA,1610233095
Centenário do Sul,-22.8211,-51.5953,77.07,80,12,7.0,BR,1610233095
Anaco,9.4389,-64.4728,74.79,86,27,5.28,VE,1610233037
Port Hardy,50.6996,-127.4199,42.8,87,90,31.07,CA,1610233096
Bobo-Dioulasso,11.1771,-4.2979,84.2,32,0,1.01,BF,1610233096
Kongolo,-5.3833,27.0,67.14,94,65,1.01,CD,1610233097
Jiblah,13.9216,44.1467,53.11,64,5,2.62,YE,1610233097
General Roca,-39.0333,-67.5833,86.0,10,0,18.41,AR,1610233098
Timberlake,37.3207,-79.2575,46.4,27,1,5.75,US,1610233098
Maravatío de Ocampo,19.9,-100.45,70.0,49,30,5.99,MX,1610233099
Pontianak,-0.0333,109.3333,77.0,94,75,3.44,ID,1610233099
Inta,66.0317,60.1659,-4.52,89,0,7.49,RU,1610233100
Heishan,41.6892,122.1128,9.21,86,98,6.78,CN,1610233100
Gold Coast,-28.0,153.4333,77.0,83,90,14.97,AU,1610233101
Agadez,19.75,10.25,70.25,22,0,7.2,NE,1610233101
Shimoda,34.6667,138.95,33.01,60,0,1.99,JP,1610233102
Marneuli,41.4759,44.8089,41.0,48,0,12.66,GE,1610233102
Najrān,17.4924,44.1277,51.8,40,0,2.53,SA,1610233032
Okato,-39.2,173.8833,66.0,79,93,5.99,NZ,1610233103
Beïnamar,8.6698,15.3813,74.71,20,100,3.67,TD,1610233104
Fayaoué,-20.65,166.5333,78.6,89,100,14.94,NC,1610233105
Tazovsky,67.4667,78.7,-23.57,86,17,9.26,RU,1610233105
Aktau,43.65,51.2,35.6,64,90,11.18,KZ,1610233105
Tessalit,20.1986,1.0114,70.79,21,0,5.73,ML,1610233106
Cidreira,-30.1811,-50.2056,77.59,82,0,15.97,BR,1610233106
Finnsnes,69.2296,17.9811,19.4,63,8,9.22,NO,1610233107
Batticaloa,7.7102,81.6924,74.32,93,100,9.01,LK,1610233107
Ulladulla,-35.35,150.4667,73.99,64,0,8.05,AU,1610233108
Kununurra,-15.7667,128.7333,84.2,94,0,4.61,AU,1610233108
Cabedelo,-6.9811,-34.8339,80.6,74,0,9.22,BR,1610233108
Pershotravneve,51.3929,28.8684,28.85,98,88,9.42,UA,1610233109
Bom Jesus,-9.0744,-44.3586,79.57,62,75,1.66,BR,1610233109
Kulunda,52.566,78.9385,5.81,89,100,15.68,RU,1610233110
Road Town,18.4167,-64.6167,79.0,73,20,6.91,VG,1610232926
Umluj,25.0213,37.2685,74.35,57,0,5.23,SA,1610233111
Vysokoye,52.3709,23.3708,28.0,87,89,1.01,BY,1610233112
Lāsalgaon,20.15,74.2333,69.48,81,66,5.99,IN,1610233112
Rumoi,43.9344,141.6428,18.86,95,92,17.16,JP,1610233113
Ifakara,-8.1333,36.6833,72.64,93,100,0.56,TZ,1610233113
Honningsvåg,70.9821,25.9704,23.22,93,4,28.66,NO,1610233113
Tupik,54.4253,119.9327,-18.74,83,50,2.15,RU,1610233114
Amahai,-3.3333,128.9167,81.39,78,92,3.4,ID,1610233114
Vila Franca do Campo,37.7167,-25.4333,53.6,58,40,5.75,PT,1610233115
Gravdal,68.1214,13.5031,33.03,87,100,18.07,NO,1610233115
Wajima,37.4,136.9,31.37,94,100,15.35,JP,1610233116
Saint George,37.1041,-113.5841,53.6,28,1,14.97,US,1610232836
Ostrovnoy,68.0531,39.5131,5.56,91,87,10.09,RU,1610233038
Moose Factory,51.2585,-80.6094,23.0,93,90,5.75,CA,1610233117
Smiths Falls,44.9001,-76.0161,25.0,69,100,7.54,CA,1610233118
Kyrksæterøra,63.2906,9.0891,35.6,80,40,17.27,NO,1610233118
Alice Springs,-23.7,133.8833,80.6,29,0,2.3,AU,1610232968
Whitehorse,60.7161,-135.0538,24.8,80,75,17.27,CA,1610232990
Gao,16.6362,1.637,76.23,17,14,8.12,ML,1610233120
Gien,47.6933,2.6309,30.99,96,0,3.0,FR,1610233120
Provincia di Campobasso,41.6333,14.5833,43.0,97,99,3.18,IT,1610233121
Foxton,-40.4667,175.3,71.01,76,99,5.01,NZ,1610233121
Dawei,14.0833,98.2,67.64,67,8,4.72,MM,1610233122
Hurricane,37.1753,-113.2899,53.6,36,1,13.8,US,1610232994
Midland,31.9974,-102.0779,35.6,100,90,13.8,US,1610233020
Mahon,39.8885,4.2658,53.6,76,75,17.27,ES,1610233124
Doha,25.2867,51.5333,62.6,63,0,4.61,QA,1610232871
Dingle,10.9995,122.6711,75.04,91,99,12.95,PH,1610233019
Bilma,18.6853,12.9164,66.15,26,0,2.08,NE,1610233125
Ürümqi,43.801,87.6005,-0.4,85,37,2.24,CN,1610233125
Kislyakovskaya,46.4417,39.675,38.03,78,100,10.07,RU,1610233126
Havøysund,70.9963,24.6622,21.2,63,16,19.57,NO,1610233126
Esim,4.8699,-2.2405,79.25,86,37,8.25,GH,1610233127
Homer,59.6425,-151.5483,35.6,75,90,6.91,US,1610233127
Zhelyabovka,45.3988,34.7578,33.24,90,92,4.27,UA,1610233128
Kortkeros,61.8106,51.5806,14.0,92,40,6.71,RU,1610233129
Monte Patria,-30.6919,-70.9467,76.08,28,0,7.07,CL,1610233129
Nuuk,64.1835,-51.7216,28.4,64,75,7.7,GL,1610233130
Gemeente Enkhuizen,52.7,5.2833,35.01,79,37,1.01,NL,1610233130
Manggar,-2.8833,108.2667,78.12,85,96,12.82,ID,1610233130
Beloha,-25.1667,45.05,76.6,82,0,7.29,MG,1610233131
Kokoda,-8.8785,147.7407,81.09,65,100,1.79,PG,1610233131
Koungou,-12.7336,45.2042,77.0,78,20,8.05,YT,1610233132
Atar,20.5169,-13.0499,62.67,40,20,12.33,MR,1610233133
Nuquí,5.7125,-77.2708,77.14,83,97,6.08,CO,1610233133
Karratha,-20.7377,116.8463,93.11,37,43,12.01,AU,1610232986
Bushenyi,-0.5853,30.2114,61.38,93,99,2.37,UG,1610233134
Kloulklubed,7.0419,134.2556,77.0,94,75,9.08,PW,1610233135
Nava,28.4167,-100.7667,46.4,71,90,5.75,MX,1610233135
Aktobe,50.2797,57.2072,19.4,73,0,8.95,KZ,1610233045
Carora,10.1755,-70.0827,79.79,59,66,9.8,VE,1610233136
San Luis Río Colorado,32.4631,-114.7767,69.8,12,1,16.11,MX,1610233087
Craig,40.5153,-107.5464,19.4,73,75,8.05,US,1610233137
Rolla,37.9514,-91.7713,30.0,74,90,4.61,US,1610233138
Rāmhormoz,31.28,49.6035,52.61,42,0,1.61,IR,1610233138
Umm Kaddadah,13.6017,26.6876,64.69,26,4,13.31,SD,1610233139
Dhidhdhoo,6.8833,73.1,82.04,75,91,9.95,MV,1610233139
Nicoya,10.1483,-85.452,86.0,54,20,20.71,CR,1610233140
Ampanihy,-24.7,44.75,76.68,76,0,2.57,MG,1610233140
Rundu,-17.9333,19.7667,69.49,93,89,2.91,NA,1610233141
La Santisima Trinidad,-14.8333,-64.9,91.4,55,20,9.22,BO,1610233141
Acaraú,-2.8856,-40.12,79.95,78,66,15.95,BR,1610233037
Ciriè,45.2351,7.5988,35.01,69,40,4.61,IT,1610233142
Borogontsy,62.6683,131.1683,-35.63,82,100,2.82,RU,1610233142
Boguchany,58.3814,97.4531,-1.28,90,100,7.45,RU,1610233143
São Félix do Xingu,-6.6447,-51.995,78.85,75,78,2.37,BR,1610233143
Vaasa,63.096,21.6158,19.99,93,0,4.61,FI,1610233018
Swan Hill,-35.3378,143.5544,86.4,20,21,3.11,AU,1610233144
Deputatsky,69.3,139.9,-23.37,88,99,2.37,RU,1610233145
Abū Zabad,12.35,29.25,66.33,24,61,12.84,SD,1610233145
Ingham,42.6,-84.3833,32.0,74,1,3.44,US,1610233146
Nagapattinam,10.7667,79.8333,76.26,88,100,9.35,IN,1610232929
Cortez,37.3489,-108.5859,37.99,44,1,8.05,US,1610233147
Charters Towers,-20.1,146.2667,73.35,84,94,13.2,AU,1610233147
Mehamn,71.0357,27.8492,16.74,92,34,15.39,NO,1610233147
Gunzenhausen,49.1,10.75,28.99,100,90,4.61,DE,1610233148
Les Cayes,18.2,-73.75,76.32,78,50,2.39,HT,1610233148
Naze,28.3667,129.4833,50.0,71,75,9.22,JP,1610233149
Nsanje,-16.92,35.262,75.34,93,100,2.8,MW,1610233150
Nishihara,26.1842,127.7558,55.4,67,75,21.85,JP,1610233150
Tangier,35.7806,-5.8137,48.2,66,40,17.27,MA,1610233150
Bull Savanna,17.8868,-77.5902,74.62,84,89,5.26,JM,1610233151
Bogalusa,30.791,-89.8487,48.2,49,1,9.22,US,1610233151
Puerto Madryn,-42.7692,-65.0385,84.22,14,17,29.35,AR,1610233152
